[
        {
            "name": "Gara Quang Tiến",
            "lat": 21.0755,
            "lng": 105.7990,
            "address": "Cuối Ngõ 126 Đ. Xuân Đỉnh, Xuân Đỉnh, Bắc Từ Liêm, Hà Nội, Việt Nam",
            "street": "Xuân Đỉnh",
            "ward": "Xuân Đỉnh",
            "district": "Bắc Từ Liêm",
            "city": "Hà Nội",
            "rating": 4.5,
            "phone": "0968372332",
            "hours": "6:00 AM - 6:00 PM",
            "services": "Sửa ô tô",
            "price": "700000"
        },
        {
            "name": "Gara Bình An",
            "lat": 21.0763,
            "lng": 105.7851,
            "address": "136 Đ. Phạm Văn Đồng, Xuân Đỉnh, Bắc Từ Liêm, Hà Nội, Việt Nam",
            "street": "Phạm Văn Đồng",
            "ward": "Xuân Đỉnh",
            "district": "Bắc Từ Liêm",
            "city": "Hà Nội",
            "rating": 5.0,
            "phone": "0974934648",
            "hours": "8:00 AM - 6:00 PM",
            "services": "Sửa ô tô",
            "price": "1200000"
        },
        {
            "name": "Gara Trường Phát",
            "lat": 21.0898,
            "lng": 105.7855,
            "address": "102 Đ. Tân Xuân, Đông Ngạc, Bắc Từ Liêm, Hà Nội , Việt Nam",
            "street": "Tân Xuân",
            "ward": "Đông Ngạc",
            "district": "Bắc Từ Liêm",
            "city": "Hà Nội",
            "rating": 4.5,
            "phone": "02437579573",
            "hours": "7:00 AM - 7:00 PM",
            "services": "Sửa ô tô",
            "price": "900000"
        },
        {
            "name": "Gara Tâm Bình",
            "lat": 21.0580,
            "lng": 105.7818,
            "address": "442 Đ. Phạm Văn Đồng, Cổ Nhuế, Bắc Từ Liêm, Hà Nội, Việt Nam",
            "street": "Phạm Văn Đồng",
            "ward": "Cổ Nhuế",
            "district": "Bắc Từ Liêm",
            "city": "Hà Nội",
            "rating": 4,
            "phone": "0984043606",
            "hours": "7:00 AM - 7:00 PM",
            "services": "Sửa ô tô",
            "price": "2500000"
        },
        {
            "name": "Gara An Lộc",
            "lat": 21.0700,
            "lng": 105.7884,
            "address": "Lô 32-33, P. Lộc, Xuân Đỉnh, Bắc Từ Liêm, Hà Nội, Việt Nam",
            "street": "Lộc",
            "ward": "Xuân Đỉnh",
            "district": "Bắc Từ Liêm",
            "city": "Hà Nội",
            "rating": 4,
            "phone": "0961221999",
            "hours": "7:00 AM - 7:00 PM",
            "services": "Sửa ô tô",
            "price": "1500000"
        },
        {
            "name": "Thái Honda Motor",
            "lat": 21.0717,
            "lng": 105.7724,
            "address": "3 P. Viên, Cổ Nhuế, Bắc Từ Liêm, Hà Nội, Việt Nam",
            "street": "Phố Viên",
            "ward": "Cổ Nhuế",
            "district": "Bắc Từ Liêm",
            "city": "Hà Nội",
            "rating": 4,
            "phone": "0929637979",
            "hours": "7:00 AM - 8:00 PM",
            "services": "Sửa xe máy",
            "price": "600000"
        },
        {
            "name": "Nam Việt Motor",
            "lat": 21.0664,
            "lng": 105.7728,
            "address": "188 P. Viên, Cổ Nhuế, Bắc Từ Liêm, Hà Nội, Việt Nam",
            "street": "Phố Viên",
            "ward": "Cổ Nhuế",
            "district": "Bắc Từ Liêm",
            "city": "Hà Nội",
            "rating": 5,
            "phone": "0969743097",
            "hours": "7:00 AM - 7:00 PM",
            "services": "Sửa xe máy",
            "price": "800000"
        },
        {
            "name": "Vinh Motor",
            "lat": 21.0694,
            "lng": 105.7782,
            "address": "489 Đ. Cổ Nhuế, Cổ Nhuế, Bắc Từ Liêm, Hà Nội, Việt Nam",
            "street": "Cổ Nhuế",
            "ward": "Cổ Nhuế",
            "district": "Bắc Từ Liêm",
            "city": "Hà Nội",
            "rating": 3.5,
            "phone": "0326196666",
            "hours": "7:00 AM - 7:00 PM",
            "services": "Sửa xe máy",
            "price": "1100000"
        },
        {
            "name": "Phương Motor",
            "lat": 21.0808,
            "lng": 105.7848,
            "address": "369 Đ. Xuân Đỉnh, Xuân Đỉnh, Bắc Từ Liêm, Hà Nội, Việt Nam",
            "street": "Xuân Đỉnh",
            "ward": "Xuân Đỉnh",
            "district": "Bắc Từ Liêm",
            "city": "Hà Nội",
            "rating": 5,
            "phone": "0353121919",
            "hours": "7:00 AM - 9:00 PM",
            "services": "Sửa xe máy",
            "price": "650000"
        },
        {
            "name": "Anh Trọng Motor",
            "lat": 21.0842,
            "lng": 105.7716,
            "address": "111 Tân Nhuệ, Thuỵ Phương, Bắc Từ Liêm, Hà Nội, Việt Nam",
            "street": "Tân Nhuệ",
            "ward": "Thuỵ Phương",
            "district": "Bắc Từ Liêm",
            "city": "Hà Nội",
            "rating": 5,
            "phone": "0977055762",
            "hours": "7:00 AM - 7:00 PM",
            "services": "Sửa xe máy",
            "price": "750000"
        },
        {
            "name": "Phụ tùng xe điện ngọc anh",
            "lat": 21.0843,
            "lng": 105.777,
            "address": "24 Đ.Thụy Phương, Đông Ngạc, Bắc Từ Liêm, Hà Nội, Việt Nam",
            "street": "Thụy Phương",
            "ward": "Đông Ngạc",
            "district": "Bắc Từ Liêm",
            "city": "Hà Nội",
            "rating": 5,
            "phone": "0368645556",
            "hours": "7:00 AM - 7:00 PM",
            "services": "Sửa xe đạp điện",
            "price": "350000"
        },
        {
            "name": "Th Bike Trung Tâm Sửa Chữa Xe Điện",
            "lat": 21.0709,
            "lng": 105.7955,
            "address": "1 Ng. 205 Đ. Xuân Đỉnh, Xuân Đỉnh, Tây Hồ, Hà Nội, Việt Nam",
            "street": "Xuân Đỉnh",
            "ward": "Xuân Đỉnh",
            "district": "Tây Hồ",
            "city": "Hà Nội",
            "rating": 5,
            "phone": "0978964562",
            "hours": "7:00 AM - 7:00 PM",
            "services": "Sửa xe đạp điện",
            "price": "200000"
        },
        {
            "name": "SỬA XE ĐIỆN XE ĐẠP HỮU TÍN",
            "lat": 21.0814,
            "lng": 105.7854,
            "address": "66 Đ. Tân Xuân, Xuân Đỉnh, Bắc Từ Liêm, Hà Nội, Việt Nam",
            "street": "Tân Xuân",
            "ward": "Xuân Đỉnh",
            "district": "Bắc Từ Liêm",
            "city": "Hà Nội",
            "rating": 5,
            "phone": "0984435708",
            "hours": "7:00 AM - 7:00 PM",
            "services": "Sửa xe đạp điện",
            "price": "250000"
        },
        {
            "name": "Xedapdien.vn",
            "lat": 21.0608,
            "lng": 105.7838,
            "address": "427 Đ. Phạm Văn Đồng, Cổ Nhuế, Bắc Từ Liêm, Hà Nội 10000, Việt Nam",
            "street": "Phạm Văn Đồng",
            "ward": "Cổ Nhuế",
            "district": "Bắc Từ Liêm",
            "city": "Hà Nội",
            "rating": 4.5,
            "phone": "18009473",
            "hours": "7:00 AM - 7:00 PM",
            "services": "Sửa xe đạp điện",
            "price": "350000"
        },
        {
            "name": "Xe điện Hùng Kiên",
            "lat": 21.0449,
            "lng": 105.7620,
            "address": "số 7 Ngách 259/57, Đ. Phú Diễn, Cầu Diễn, Bắc Từ Liêm, Hà Nội 100000, Việt Nam",
            "street": "Phú Diễn",
            "ward": "Cầu Diễn",
            "district": "Bắc Từ Liêm",
            "city": "Hà Nội",
            "rating": 4,
            "phone": "0977830065",
            "hours": "7:00 AM - 7:00 PM",
            "services": "Sửa xe đạp điện",
            "price": "300000"
        },
        {
            "name": "Thay Ắc Quy Xe Đạp Điện Chính Hãng",
            "lat": 21.0751,
            "lng": 105.7729,
            "address": "ngõ 59/14 P. Lê Văn Hiến, Đông Ngạc, Bắc Từ Liêm, Hà Nội 11910, Việt Nam",
            "street": "Lê Văn Hiến",
            "ward": "Đông Ngạc",
            "district": "Bắc Từ Liêm",
            "city": "Hà Nội",
            "rating": 5,
            "phone": "0944650333",
            "hours": "8:00 AM - 7:00 PM",
            "services": "Sửa xe đạp điện",
            "price": "400000"
        }
    ]